[
    {
        "city": "Nairobi", 
        "admin": "Nairobi City", 
        "country": "Kenya", 
        "population_proper": "2750547", 
        "iso2": "KE", 
        "capital": "primary", 
        "lat": "-1.283333", 
        "lng": "36.816667", 
        "population": "3010000"
    }, 
    {
        "city": "Mombasa", 
        "admin": "Mombasa", 
        "country": "Kenya", 
        "population_proper": "799668", 
        "iso2": "KE", 
        "capital": "admin", 
        "lat": "-4.054655", 
        "lng": "39.663588", 
        "population": "882000"
    }, 
    {
        "city": "Kisumu", 
        "admin": "Kisumu", 
        "country": "Kenya", 
        "population_proper": "216479", 
        "iso2": "KE", 
        "capital": "admin", 
        "lat": "-0.10221", 
        "lng": "34.761714", 
        "population": "395615"
    }, 
    {
        "city": "Nakuru", 
        "admin": "Nakuru", 
        "country": "Kenya", 
        "population_proper": "259903", 
        "iso2": "KE", 
        "capital": "admin", 
        "lat": "-0.283333", 
        "lng": "36.066667", 
        "population": "364727"
    }, 
    {
        "city": "Eldoret", 
        "admin": "Uasin Gishu", 
        "country": "Kenya", 
        "population_proper": "218446", 
        "iso2": "KE", 
        "capital": "", 
        "lat": "0.520356", 
        "lng": "35.269925", 
        "population": "353381"
    }, 
    {
        "city": "Kitale", 
        "admin": "Trans Nzoia", 
        "country": "Kenya", 
        "population_proper": "75123", 
        "iso2": "KE", 
        "capital": "", 
        "lat": "1.015725", 
        "lng": "35.006217", 
        "population": "150495"
    }, 
    {
        "city": "Machakos", 
        "admin": "Machakos", 
        "country": "Kenya", 
        "population_proper": "31971", 
        "iso2": "KE", 
        "capital": "", 
        "lat": "-1.516667", 
        "lng": "37.266667", 
        "population": "144925"
    }, 
    {
        "city": "Thika", 
        "admin": "Kiambu", 
        "country": "Kenya", 
        "population_proper": "87821", 
        "iso2": "KE", 
        "capital": "", 
        "lat": "-1.05", 
        "lng": "37.083333", 
        "population": "99322"
    }, 
    {
        "city": "Kericho", 
        "admin": "Kericho", 
        "country": "Kenya", 
        "population_proper": "35748", 
        "iso2": "KE", 
        "capital": "", 
        "lat": "-0.367744", 
        "lng": "35.283137", 
        "population": "98852"
    }, 
    {
        "city": "Malindi", 
        "admin": "Kilifi", 
        "country": "Kenya", 
        "population_proper": "68304", 
        "iso2": "KE", 
        "capital": "", 
        "lat": "-3.217478", 
        "lng": "40.1191", 
        "population": "94016"
    }, 
    {
        "city": "Kendu Bay", 
        "admin": "Homa Bay", 
        "country": "Kenya", 
        "population_proper": "91248", 
        "iso2": "KE", 
        "capital": "", 
        "lat": "-0.358917", 
        "lng": "34.649238", 
        "population": "91248"
    }, 
    {
        "city": "Kilifi", 
        "admin": "Kilifi", 
        "country": "Kenya", 
        "population_proper": "46118", 
        "iso2": "KE", 
        "capital": "", 
        "lat": "-3.630453", 
        "lng": "39.849915", 
        "population": "80339"
    }, 
    {
        "city": "Sotik", 
        "admin": "Kericho", 
        "country": "Kenya", 
        "population_proper": "2600", 
        "iso2": "KE", 
        "capital": "", 
        "lat": "-0.683333", 
        "lng": "35.118709", 
        "population": "71285"
    }, 
    {
        "city": "Garissa", 
        "admin": "Garissa", 
        "country": "Kenya", 
        "population_proper": "64035", 
        "iso2": "KE", 
        "capital": "admin", 
        "lat": "-0.453548", 
        "lng": "39.640108", 
        "population": "67861"
    }, 
    {
        "city": "Kakamega", 
        "admin": "Kakamega", 
        "country": "Kenya", 
        "population_proper": "63426", 
        "iso2": "KE", 
        "capital": "admin", 
        "lat": "0.284219", 
        "lng": "34.752285", 
        "population": "63426"
    }, 
    {
        "city": "Embu", 
        "admin": "Embu", 
        "country": "Kenya", 
        "population_proper": "34922", 
        "iso2": "KE", 
        "capital": "admin", 
        "lat": "-0.531115", 
        "lng": "37.450605", 
        "population": "58620"
    }, 
    {
        "city": "Bungoma", 
        "admin": "Bungoma", 
        "country": "Kenya", 
        "population_proper": "55962", 
        "iso2": "KE", 
        "capital": "", 
        "lat": "0.563504", 
        "lng": "34.560553", 
        "population": "55962"
    }, 
    {
        "city": "Nyeri", 
        "admin": "Nyeri", 
        "country": "Kenya", 
        "population_proper": "51084", 
        "iso2": "KE", 
        "capital": "admin", 
        "lat": "-0.420132", 
        "lng": "36.947594", 
        "population": "51084"
    }, 
    {
        "city": "Meru", 
        "admin": "Meru", 
        "country": "Kenya", 
        "population_proper": "47226", 
        "iso2": "KE", 
        "capital": "", 
        "lat": "0.046256", 
        "lng": "37.655868", 
        "population": "47226"
    }, 
    {
        "city": "Wajir", 
        "admin": "Wajir", 
        "country": "Kenya", 
        "population_proper": "34709", 
        "iso2": "KE", 
        "capital": "", 
        "lat": "1.747102", 
        "lng": "40.057315", 
        "population": "45771"
    }, 
    {
        "city": "Naivasha", 
        "admin": "Nakuru", 
        "country": "Kenya", 
        "population_proper": "38366", 
        "iso2": "KE", 
        "capital": "", 
        "lat": "-0.716667", 
        "lng": "36.435914", 
        "population": "43983"
    }, 
    {
        "city": "Voi", 
        "admin": "Taita/Taveta", 
        "country": "Kenya", 
        "population_proper": "19624", 
        "iso2": "KE", 
        "capital": "", 
        "lat": "-3.394517", 
        "lng": "38.563036", 
        "population": "36487"
    }, 
    {
        "city": "Nanyuki", 
        "admin": "Laikipia", 
        "country": "Kenya", 
        "population_proper": "32542", 
        "iso2": "KE", 
        "capital": "", 
        "lat": "0.016667", 
        "lng": "37.07283", 
        "population": "36142"
    }, 
    {
        "city": "Kisii", 
        "admin": "Kisii", 
        "country": "Kenya", 
        "population_proper": "28547", 
        "iso2": "KE", 
        "capital": "", 
        "lat": "-0.67394", 
        "lng": "34.772249", 
        "population": "28547"
    }, 
    {
        "city": "Moyale", 
        "admin": "Marsabit", 
        "country": "Kenya", 
        "population_proper": "16243", 
        "iso2": "KE", 
        "capital": "", 
        "lat": "3.5167", 
        "lng": "39.058419", 
        "population": "24837"
    }, 
    {
        "city": "Lamu", 
        "admin": "Lamu", 
        "country": "Kenya", 
        "population_proper": "10345", 
        "iso2": "KE", 
        "capital": "", 
        "lat": "-2.269248", 
        "lng": "40.899148", 
        "population": "24525"
    }, 
    {
        "city": "Maralal", 
        "admin": "Samburu", 
        "country": "Kenya", 
        "population_proper": "20841", 
        "iso2": "KE", 
        "capital": "", 
        "lat": "1.09679", 
        "lng": "36.697994", 
        "population": "20841"
    }, 
    {
        "city": "Lodwar", 
        "admin": "Turkana", 
        "country": "Kenya", 
        "population_proper": "13960", 
        "iso2": "KE", 
        "capital": "", 
        "lat": "3.119881", 
        "lng": "35.596424", 
        "population": "20219"
    }, 
    {
        "city": "Eldama Ravine", 
        "admin": "Baringo", 
        "country": "Kenya", 
        "population_proper": "12524", 
        "iso2": "KE", 
        "capital": "", 
        "lat": "0.051578", 
        "lng": "35.730776", 
        "population": "17581"
    }, 
    {
        "city": "Marsabit", 
        "admin": "Marsabit", 
        "country": "Kenya", 
        "population_proper": "15361", 
        "iso2": "KE", 
        "capital": "", 
        "lat": "2.328394", 
        "lng": "37.989856", 
        "population": "16460"
    }, 
    {
        "city": "Namanga", 
        "admin": "Kajiado", 
        "country": "Kenya", 
        "population_proper": "2136", 
        "iso2": "KE", 
        "capital": "", 
        "lat": "-2.543273", 
        "lng": "36.790532", 
        "population": "13193"
    }, 
    {
        "city": "Mwingi", 
        "admin": "Kitui", 
        "country": "Kenya", 
        "population_proper": "7874", 
        "iso2": "KE", 
        "capital": "", 
        "lat": "-0.934351", 
        "lng": "38.060047", 
        "population": "11219"
    }, 
    {
        "city": "Witu", 
        "admin": "Lamu", 
        "country": "Kenya", 
        "population_proper": "2510", 
        "iso2": "KE", 
        "capital": "", 
        "lat": "-2.388855", 
        "lng": "40.43821", 
        "population": "5380"
    }, 
    {
        "city": "Karungu", 
        "admin": "Migori", 
        "country": "Kenya", 
        "population_proper": "2376", 
        "iso2": "KE", 
        "capital": "", 
        "lat": "-0.846409", 
        "lng": "34.154788", 
        "population": "2376"
    }, 
    {
        "city": "Konza", 
        "admin": "Machakos", 
        "country": "Kenya", 
        "population_proper": "2004", 
        "iso2": "KE", 
        "capital": "", 
        "lat": "-1.742604", 
        "lng": "37.129414", 
        "population": "2004"
    }, 
    {
        "city": "Tsavo", 
        "admin": "Taita/Taveta", 
        "country": "Kenya", 
        "population_proper": "414", 
        "iso2": "KE", 
        "capital": "", 
        "lat": "-2.992083", 
        "lng": "38.461876", 
        "population": "414"
    }
]